{   "type": "FeatureCollection", 
	"features": [ 
		{ "type": "Feature",
			"geometry": {
				"type": "Point",
				"coordinates": [36.571200, -119.448767]
            },
			"properties": {
				"name": "White Peach Fruit Stand",
                "type": "stand",
                "address": {
                    "streetAddress": "42988 County Route J31",
                    "city": "Reedley",
                    "state": "CA",
                    "postalCode": 93654
                }, 
                "seasonal": "yes",
                "fruit": "peach, white peach, nectarine",
                "phone": ""
			}
		}, 
        {
			"type": "Feature",
			"geometry": {
				"type": "Point",
				"coordinates": [36.601733 , -119.461985]
			},
			"properties": {
				"name": "Reedley Strawberry Stand",
                "type": "straw-stand",
                "address": {
                    "streetAddress": "1501-1549 W Manning Ave.",
                    "city": "Reedley",
                    "state": "CA",
                    "postalCode": 93654
                },
                "seasonal": "yes",
                "fruit": "strawberry, vegetable",
                "phone": ""
			}
		}, 
        {
			"type": "Feature",
			"geometry": {
				"type": "Point",
				"coordinates": [36.719861 , -119.456909]
			},
			"properties": {
				"name": "Blossom Trail Fruit Stand",
                "type": "stand",
                "address": {
                    "streetAddress": "Highway 180 & Reed Ave.",
                    "city": "Reedley",
                    "state": "CA",
                    "postalCode": 93654
                },
                "seasonal": "yes",
                "fruit": "peach, white peach, nectarine, plum, grape, cherry, apricot, dried fruit",
                "phone": ""
			}
		}, 
        {
			"type": "Feature",
			"geometry": {
				"type": "Point",
				"coordinates": [ 36.603562 , -119.48426]
			},
			"properties": {
				"name": "Lac Jac Fruit Stand",
                "type": "stand",
                "address": {
                    "streetAddress": "9164 South Lac Jac Ave.",
                    "city": "Reedley",
                    "state": "CA",
                    "postalCode": 93654
                },
                "seasonal": "yes",
                "fruit": "peach, nectarine, apple, dried fruit",
                "phone": "5597878780"
			}
		},
        {
			"type": "Feature",
			"geometry": {
				"type": "Point",
				"coordinates": [ 36.823937 , -119.702018]
			},
			"properties": {
				"name": "Clovis Old Town Farmer's Market",
                "type": "market",
                "address": {
                    "streetAddress": "Pollasky Ave. & 5th St.",
                    "city": "Clovis",
                    "state": "CA",
                    "postalCode": 93611
                },
                "seasonal": "yes",
                "fruit": "seasonal fruit, vegetable",
                "phone": "5592985774"
			}
		}, 
        {
			"type": "Feature",
			"geometry": {
				"type": "Point",
				"coordinates": [36.450402 , -119.489028]
			},
			"properties": {
				"name": "Bravo Farms",
                "type": "market",
                "address": {
                    "streetAddress": "36005 California 99",
                    "city": "Traver",
                    "state": "CA",
                    "postalCode": 93673 
                },
                "seasonal": "no",
                "fruit": "seasonal fruit, cheeses, nuts, candies, gift baskets",
                "phone": "5598975762"
			}
		}, 
        {
			"type": "Feature",
			"geometry": {
				"type": "Point",
				"coordinates": [36.633772 , -119.45903]
			},
			"properties": {
				"name": "Hillcrest Christmas Tree Farm and Pumpkin Patch",
                "type": "market",
                "address": {
                    "streetAddress": "6943 S. Reed",
                    "city": "Reedley",
                    "state": "CA",
                    "postalCode":  93654
                },
                "seasonal": "yes",
                "fruit": "pumpkin",
                "phone": ""
			}
		},
        {
			"type": "Feature",
			"geometry": {
				"type": "Point",
				"coordinates": [36.746842, -119.772587]
			},
			"properties": {
				"name": "The Vineyard Farmer's Market",
                "type": "market",
                "address": {
                    "streetAddress": "Blackstone and 100 W Shaw Ave.",
                    "city": "Fresno",
                    "state": "CA",
                    "postalCode":  93704 
                },
                "seasonal": "yes",
                "fruit": "seasonal fruit",
                "phone": ""
			}
		},
        {
			"type": "Feature",
			"geometry": {
				"type": "Point",
				"coordinates": [36.666048,  -119.779479]
			},
			"properties": {
				"name": "Cherry Avenue Farmer's Market",
                "type": "market",
                "address": {
                    "streetAddress": "4640 S. Cherry Ave.",
                    "city": "Fresno",
                    "state": "CA",
                    "postalCode":  93702 
                },
                "seasonal": "yes",
                "fruit": "seasonal fruit",
                "phone": "5592669856"
			}
		},
        {
			"type": "Feature",
			"geometry": {
				"type": "Point",
				"coordinates": [36.330164, -119.29119]
			},
			"properties": {
				"name": "Visalia Farmer's Market",
                "type": "market",
                "address": {
                    "streetAddress": "Church and Main St.",
                    "city": "Visalia",
                    "state": "CA",
                    "postalCode":  93291
                },
                "seasonal": "yes",
                "fruit": "seasonal fruit",
                "phone": ""
			}
		},
        {
			"type": "Feature",
			"geometry": {
				"type": "Point",
				"coordinates": [36.737244 , -119.795512]
			},
			"properties": {
				"name": "Fresno Farmer's Market",
                "type": "market",
                "address": {
                    "streetAddress": "1430 Broadway",
                    "city": "Fresno",
                    "state": "CA",
                    "postalCode":  93721
                },
                "seasonal": "yes",
                "fruit": "seasonal fruit",
                "phone": ""
			}
		},
        {
			"type": "Feature",
			"geometry": {
				"type": "Point",
				"coordinates": [36.851777 , -119.790844]
			},
			"properties": {
				"name": "River Park Farmer's Market",
                "type": "market",
                "address": {
                    "streetAddress": "Blackstone and Nees Ave.",
                    "city": "Fresno",
                    "state": "CA",
                    "postalCode":  93721
                },
                "seasonal": "yes",
                "fruit": "seasonal fruit",
                "phone": "5599949292" 
			}
		},
        {
			"type": "Feature",
			"geometry": {
				"type": "Point",
				"coordinates": [37.320418 , -119.554603]
			},
			"properties": {
				"name": "Bass Lake Farmer's Market",
                "type": "market",
                "address": {
                    "streetAddress": "54310 Road 432",
                    "city": "Bass Lake",
                    "state": "CA",
                    "postalCode":  93604
                },
                "seasonal": "yes",
                "fruit": "seasonal fruit",
                "phone": ""          
			}
		},
        {
			"type": "Feature",
			"geometry": {
				"type": "Point",
				"coordinates": [36.326375 , -119.647248]
			},
			"properties": {
				"name": "Thursday Night Market Place",
                "type": "market",
                "address": {
                    "streetAddress": "219 W Lacey Blvd",
                    "city": "Hanford",
                    "state": "CA",
                    "postalCode":  93230
                },
                "seasonal": "yes",
                "fruit": "seasonal fruit",     
                "phone": "5595829457"     
			}
		},
        {
			"type": "Feature",
			"geometry": {
				"type": "Point",
				"coordinates": [36.514755 , -119.552875]
			},
			"properties": {
				"name": "Kingsburg Farmer's Market",
                "type": "market",
                "address": {
                    "streetAddress": "Draper St. & Smith St.",
                    "city": "Kingsburg",
                    "state": "CA",
                    "postalCode":  93631
                },
                "seasonal": "yes",
                "fruit": "seasonal fruit",     
                "phone": "5598698822"
			}
		},
        {
			"type": "Feature",
			"geometry": {
				"type": "Point",
				"coordinates": [36.59634 , -119.450403]
			},
			"properties": {
				"name": "Reedley Farmer's Market",
                "type": "market",
                "address": {
                    "streetAddress": "11th St. and G St.",
                    "city": "Reedley",
                    "state": "CA",
                    "postalCode":  93654
                },
                "seasonal": "yes",
                "fruit": "seasonal fruit",
                "phone": ""       
			}
		},
        {
			"type": "Feature",
			"geometry": {
				"type": "Point",
				"coordinates": [36.842177 , -119.782605]
			},
			"properties": {
				"name": "Kaiser Permanente Farmer's Market",
                "type": "market",
                "address": {
                    "streetAddress": "7300 N. Fresno St.",
                    "city": "Fresno",
                    "state": "CA",
                    "postalCode":  93720
                },
                "seasonal": "yes",
                "fruit": "seasonal fruit",
                "phone": ""       
			}
		},
        {
			"type": "Feature",
			"geometry": {
				"type": "Point",
				"coordinates": [36.763157 , -119.799003]
			},
			"properties": {
				"name": "Tower Farmer's Produce Market",
                "type": "market",
                "address": {
                    "streetAddress": "1501 N. Van Ness Ave.",
                    "city": "Fresno",
                    "state": "CA",
                    "postalCode":  93744
                },
                "seasonal": "yes",
                "fruit": "seasonal fruit",   
                "phone":"5592278026"   
			}
		},
        {
			"type": "Feature",
			"geometry": {
				"type": "Point",
				"coordinates": [36.815516 , -119.773618]
			},
			"properties": {
				"name": "Kristina's Natural Ranch Market",
                "type": "market",
                "address": {
                    "streetAddress": "761 East Barstow Ave.",
                    "city": "Fresno",
                    "state": "CA",
                    "postalCode":  93710
                },
                "seasonal": "yes",
                "fruit": "seasonal fruit",
                "phone": ""       
			}
		},
        {
			"type": "Feature",
			"geometry": {
				"type": "Point",
				"coordinates": [36.735475 , -119.785468]
			},
			"properties": {
				"name": "Market on Kern",
                "type": "market",
                "address": {
                    "streetAddress": "2325 Kern St.",
                    "city": "Fresno",
                    "state": "CA",
                    "postalCode":  93721
                },
                "seasonal": "yes",
                "fruit": "seasonal fruit",  
                "phone":"5594909966"    
			}
		},
        {
			"type": "Feature",
			"geometry": {
				"type": "Point",
				"coordinates": [36.780043, -119.788195]
			},
			"properties": {
				"name": "Manchester Center Farmer's Market",
                "type": "market",
                "address": {
                    "streetAddress": "Manchester Center, 1901 E. Shields Ave.",
                    "city": "Fresno",
                    "state": "CA",
                    "postalCode":  93726
                },
                "seasonal": "yes",
                "fruit": "seasonal fruit",    
                "phone":"5592271901"   
			}
		},
        {
			"type": "Feature",
			"geometry": {
				"type": "Point",
				"coordinates": [36.851767 , -119.805170]
			},
			"properties": {
				"name": "Park Place Farmer's Market",
                "type": "market",
                "address": {
                    "streetAddress": "N Palm Ave. and W Nees Ave.",
                    "city": "Fresno",
                    "state": "CA",
                    "postalCode":  93711
                },
                "seasonal": "yes",
                "fruit": "seasonal fruit",
                "phone": ""     
			}
		},
        {
			"type": "Feature",
			"geometry": {
				"type": "Point",
				"coordinates": [36.557368 , -119.448695]
			},
			"properties": {
				"name": "Peach Fruit Stand",
                "type": "stand",
                "address": {
                    "streetAddress": "42202 County Route J31",
                    "city": "Reedley",
                    "state": "CA",
                    "postalCode":  93654
                },
                "seasonal": "yes",
                "fruit": "seasonal fruit",
                "phone": ""     
			}
		},
        {
			"type": "Feature",
			"geometry": {
				"type": "Point",
				"coordinates": [36.546363 , -119.41879]
			},
			"properties": {
				"name": "Dinuba Strawberry Stand",
                "type": "straw-stand",
                "address": {
                    "streetAddress": "6920 Ave. 416",
                    "city": "Dinuba",
                    "state": "CA",
                    "postalCode":  93618
                },
                "seasonal": "yes",
                "fruit": "strawberry and vegetable",
                "phone": ""     
			}
		},
        {
			"type": "Feature",
			"geometry": {
				"type": "Point",
				"coordinates": [36.54606 , -119.411546]
			},
			"properties": {
				"name": "Wilgenburg Greenhouses",
                "type": "market",
                "address": {
                    "streetAddress": "6761 West El Monte Way",
                    "city": "Dinuba",
                    "state": "CA",
                    "postalCode":  93618
                },
                "seasonal": "yes",
                "fruit": "strawberry, tomato, cucumber, pea, pepper, and, broccoli",   
                "phone": "5595910352"
			}
		},
        {
			"type": "Feature",
			"geometry": {
				"type": "Point",
				"coordinates": [36.733491 , -119.499214]
			},
			"properties": {
				"name": "Centerville Fruit Stand",
                "type": "stand",
                "address": {
                    "streetAddress": "16073 California 180",
                    "city": "Sanger",
                    "state": "CA",
                    "postalCode":  93725
                },
                "seasonal": "yes",
                "fruit": "peach, white peach, nectarine, plum, grape, cherry, apricot, dried fruit",
                "phone": ""
			}
		},	      	    	    	        	    		
        {
			"type": "Feature",
			"geometry": {
				"type": "Point",
				"coordinates": [36.605486 , -119.610472]
			},
			"properties": {
				"name": "Kao Saechao’s Strawberry Farm",
                "type": "straw-stand",
                "address": {
                    "streetAddress": "8998 South McCall Ave.",
                    "city": "Selma",
                    "state": "CA",
                    "postalCode":  93662
                },
                "seasonal": "yes",
                "fruit": "strawberry, watermelon",
                "phone": ""
			}
		}       
    ]
}